{
  "type": "FeatureCollection",
  "generator": "overpass-turbo",
  "copyright": "The data included in this document is from www.openstreetmap.org. The data is made available under ODbL.",
  "timestamp": "2025-04-22T20:59:45Z",
  "features": [
    {
      "type": "Feature",
      "properties": {
        "@id": "node/13799212",
        "amenity": "library",
        "name": "Holborn Library",
        "opening_hours": "Mo-Th 10:00-19:00, Fr 10:00-17:00, Sa 11:00-17:00",
        "wikidata": "Q20870267"
      },
      "geometry": {
        "type": "Point",
        "coordinates": [
          -0.1156316,
          51.5210789
        ]
      },
      "id": "node/13799212"
    },
    {
      "type": "Feature",
      "properties": {
        "@id": "node/13878265",
        "website": "http://www.lewisham.gov.uk/myservices/libraries/branches/Pages/Catford-Library.aspx",
        "wikidata": "Q55111296",
        "operator": "Lewisham Council",
        "name": "Catford Library",
        "amenity": "library",
        "wheelchair": "yes",
        "opening_hours": "Mo, Fr 08:30-17:00; Tu, Th 08:30-19:00; Sa 09:00-17:00; Su off"
      },
      "geometry": {
        "type": "Point",
        "coordinates": [
          -0.0206975,
          51.444626
        ]
      },
      "id": "node/13878265"
    },
    {
      "type": "Feature",
      "properties": {
        "@id": "node/25474641",
        "amenity": "cinema",
        "name": "Barbican Centre (Cinema)"
      },
      "geometry": {
        "type": "Point",
        "coordinates": [
          -0.0937556,
          51.5197763
        ]
      },
      "id": "node/25474641"
    },
    {
      "type": "Feature",
      "properties": {
        "@id": "node/26573161",
        "wheelchair": "limited",
        "toilets:wheelchair": "yes",
        "name": "Odeon Mezzanine",
        "amenity": "cinema"
      },
      "geometry": {
        "type": "Point",
        "coordinates": [
          -0.1290844,
          51.5102139
        ]
      },
      "id": "node/26573161"
    },
    {
      "type": "Feature",
      "properties": {
        "@id": "node/26573168",
        "wikipedia": "en:Empire, Leicester Square",
        "wikidata": "Q3724821",
        "wheelchair": "limited",
        "fhrs:local_authority_id": "00989/0005/0/001",
        "source:addr": "FSA Food Hygiene Ratings Database",
        "source:postcode": "FSA Food Hygiene Ratings Database",
        "postal_code": "WC2H 7NA",
        "name": "Cineworld Leicester Square",
        "addr:city": "London",
        "addr:housenumber": "5-6",
        "addr:street": "Leicester Square",
        "amenity": "cinema",
        "fhrs:confidence_management": "5",
        "fhrs:hygiene": "5",
        "fhrs:id": "412954",
        "fhrs:rating": "2",
        "fhrs:structural": "15"
      },
      "geometry": {
        "type": "Point",
        "coordinates": [
          -0.1304091,
          51.5109335
        ]
      },
      "id": "node/26573168"
    },
    {
      "type": "Feature",
      "properties": {
        "@id": "node/26573173",
        "wheelchair": "yes",
        "name": "Vue Leicester Square",
        "amenity": "cinema"
      },
      "geometry": {
        "type": "Point",
        "coordinates": [
          -0.1293677,
          51.5112449
        ]
      },
      "id": "node/26573173"
    },
    {
      "type": "Feature",
      "properties": {
        "@id": "node/26671967",
        "wikidata": "Q42030169",
        "amenity": "cinema",
        "name": "Odeon Panton Street"
      },
      "geometry": {
        "type": "Point",
        "coordinates": [
          -0.1312249,
          51.5095663
        ]
      },
      "id": "node/26671967"
    },
    {
      "type": "Feature",
      "properties": {
        "@id": "node/26699541",
        "website": "http://www.curzoncinemas.com",
        "wikidata": "Q42029812",
        "wheelchair": "yes",
        "addr:city": "London",
        "addr:housenumber": "99",
        "addr:street": "Shaftesbury Avenue",
        "amenity": "cinema",
        "fhrs:confidence_management": "10",
        "fhrs:hygiene": "5",
        "fhrs:id": "411768",
        "fhrs:local_authority_id": "12/00121/COMM",
        "fhrs:rating": "4",
        "fhrs:structural": "5",
        "name": "Curzon Soho",
        "postal_code": "W1D 5DY"
      },
      "geometry": {
        "type": "Point",
        "coordinates": [
          -0.1306078,
          51.5126577
        ]
      },
      "id": "node/26699541"
    },
    {
      "type": "Feature",
      "properties": {
        "@id": "node/27349536",
        "amenity": "library",
        "wikidata": "Q55125481",
        "name": "Ponders End Library"
      },
      "geometry": {
        "type": "Point",
        "coordinates": [
          -0.0476243,
          51.6452209
        ]
      },
      "id": "node/27349536"
    },
    {
      "type": "Feature",
      "properties": {
        "@id": "node/27408565",
        "wikidata": "Q7759072",
        "amenity": "theatre",
        "name": "Questors Theatre"
      },
      "geometry": {
        "type": "Point",
        "coordinates": [
          -0.3095337,
          51.5116172
        ]
      },
      "id": "node/27408565"
    },
    {
      "type": "Feature",
      "properties": {
        "@id": "node/31060529",
        "name": "Vue Purley Way",
        "fhrs:id": "10622",
        "amenity": "cinema",
        "addr:street": "Hesterman Way",
        "addr:postcode": "CR0 4YA",
        "fhrs:authority": "Croydon",
        "addr:city": "Croydon",
        "addr:housenumber": "21"
      },
      "geometry": {
        "type": "Point",
        "coordinates": [
          -0.1246385,
          51.3780368
        ]
      },
      "id": "node/31060529"
    },
    {
      "type": "Feature",
      "properties": {
        "@id": "node/31282165",
        "amenity": "library",
        "wikidata": "Q55125718",
        "opening_hours": "Mo-Th 09:30-20:00;Fr 09:30-17:30;Sa 09:00-17:00;Su 13:00-17:00",
        "wheelchair": "yes",
        "name": "Gayton Library",
        "phone": "+44 20 8427 6012;+44 20 8427 8986"
      },
      "geometry": {
        "type": "Point",
        "coordinates": [
          -0.3317777,
          51.5816479
        ]
      },
      "id": "node/31282165"
    },
    {
      "type": "Feature",
      "properties": {
        "@id": "node/31437646",
        "addr:postcode": "HA2 8EQ",
        "addr:street": "Northolt Road",
        "amenity": "library",
        "name": "Roxeth Library",
        "opening_hours": "Mo 09:30-17:30; Tu,Th 09:30-20:00; Fr 09:30-13:00; Sa 09:00-17:00",
        "phone": "+44 20 8422 0809",
        "wheelchair": "yes",
        "wikidata": "Q55125587"
      },
      "geometry": {
        "type": "Point",
        "coordinates": [
          -0.3563662,
          51.5625561
        ]
      },
      "id": "node/31437646"
    },
    {
      "type": "Feature",
      "properties": {
        "@id": "node/33760185",
        "amenity": "library",
        "created_by": "JOSM",
        "name": "Heston Public Library",
        "wikidata": "Q55125658"
      },
      "geometry": {
        "type": "Point",
        "coordinates": [
          -0.3753643,
          51.4857701
        ]
      },
      "id": "node/33760185"
    },
    {
      "type": "Feature",
      "properties": {
        "@id": "node/33869776",
        "website": "http://www.secombetheatre.co.uk/charles+cryer+studio+theatre",
        "name": "Charles Cryer Studio Theatre",
        "amenity": "theatre"
      },
      "geometry": {
        "type": "Point",
        "coordinates": [
          -0.159608,
          51.3659217
        ]
      },
      "id": "node/33869776"
    },
    {
      "type": "Feature",
      "properties": {
        "@id": "node/36470132",
        "addr:postcode": "UB6 0EE",
        "addr:street": "Whitton Avenue West",
        "amenity": "library",
        "name": "Wood End Library & Children's Centre",
        "phone": "+44 2084223965"
      },
      "geometry": {
        "type": "Point",
        "coordinates": [
          -0.3497174,
          51.5528683
        ]
      },
      "id": "node/36470132"
    },
    {
      "type": "Feature",
      "properties": {
        "@id": "node/36969174",
        "addr:postcode": "SM3 8QH",
        "amenity": "library",
        "name": "Cheam Library",
        "phone": "+44 20 8644 9377",
        "wikidata": "Q55125744"
      },
      "geometry": {
        "type": "Point",
        "coordinates": [
          -0.2166396,
          51.3601417
        ]
      },
      "id": "node/36969174"
    },
    {
      "type": "Feature",
      "properties": {
        "@id": "node/39685823",
        "website": "http://www.odeon.co.uk/cinemas/wimbledon/142/",
        "wikidata": "Q42166436",
        "fhrs:id": "200020",
        "amenity": "cinema",
        "name": "Odeon",
        "addr:city": "London",
        "addr:housenumber": "39",
        "addr:postcode": "SW19 1QB",
        "addr:street": "The Broadway",
        "alt_name": "Odeon Wimbledon"
      },
      "geometry": {
        "type": "Point",
        "coordinates": [
          -0.2048792,
          51.4198096
        ]
      },
      "id": "node/39685823"
    },
    {
      "type": "Feature",
      "properties": {
        "@id": "node/57215755",
        "amenity": "music_venue",
        "name": "The Ocean"
      },
      "geometry": {
        "type": "Point",
        "coordinates": [
          -0.0551331,
          51.5445508
        ]
      },
      "id": "node/57215755"
    },
    {
      "type": "Feature",
      "properties": {
        "@id": "node/60779761",
        "phone": "+44 20 84209333",
        "wikidata": "Q55125590",
        "wheelchair": "yes",
        "amenity": "library",
        "name": "Wealdstone Library",
        "opening_hours": "Mo 09:30-17:30; Tu,Th 09:30-20:00; Fr 09:30-13:00; Sa 09:00-17:00",
        "operator": "Harrow Council"
      },
      "geometry": {
        "type": "Point",
        "coordinates": [
          -0.3349034,
          51.5942225
        ]
      },
      "id": "node/60779761"
    },
    {
      "type": "Feature",
      "properties": {
        "@id": "node/70750056",
        "addr:city": "London",
        "addr:housenumber": "7",
        "addr:street": "Leicester Place",
        "amenity": "cinema",
        "fhrs:confidence_management": "10",
        "fhrs:hygiene": "0",
        "fhrs:id": "411668",
        "fhrs:local_authority_id": "00526/0007/0/001",
        "fhrs:rating": "4",
        "fhrs:structural": "5",
        "name": "Prince Charles Cinema",
        "note": "OS puts a place of worship here, though I have no idea what it is or was.",
        "postal_code": "WC2H 7BP",
        "source:addr": "FSA Food Hygiene Ratings Database",
        "source:postcode": "FSA Food Hygiene Ratings Database",
        "wheelchair": "limited",
        "wikidata": "Q7243849",
        "wikipedia": "en:Prince Charles Cinema"
      },
      "geometry": {
        "type": "Point",
        "coordinates": [
          -0.130204,
          51.5114505
        ]
      },
      "id": "node/70750056"
    },
    {
      "type": "Feature",
      "properties": {
        "@id": "node/90703543",
        "created_by": "Potlatch 0.4c",
        "name": "Theatre 62",
        "amenity": "theatre"
      },
      "geometry": {
        "type": "Point",
        "coordinates": [
          -0.0105443,
          51.3728529
        ]
      },
      "id": "node/90703543"
    },
    {
      "type": "Feature",
      "properties": {
        "@id": "node/140402946",
        "name": "Shepherd's Bush Library",
        "amenity": "library",
        "created_by": "Potlatch 0.5d",
        "opening_hours": "Mo-Fr 10:00-20:00; Sa 10:00-17:00; Su 11:00-17:00"
      },
      "geometry": {
        "type": "Point",
        "coordinates": [
          -0.2243077,
          51.5057966
        ]
      },
      "id": "node/140402946"
    },
    {
      "type": "Feature",
      "properties": {
        "@id": "node/209108050",
        "wheelchair": "no",
        "amenity": "cinema",
        "description": "Independent cinema specialising in South Asian (e.g. \"Bollywood\") films.",
        "name": "Safari Cinema",
        "wikidata": "Q42163367"
      },
      "geometry": {
        "type": "Point",
        "coordinates": [
          -0.3324561,
          51.5865654
        ]
      },
      "id": "node/209108050"
    },
    {
      "type": "Feature",
      "properties": {
        "@id": "node/210745603",
        "wheelchair": "yes",
        "level": "1",
        "branch": "Harrow",
        "amenity": "cinema",
        "name": "Vue"
      },
      "geometry": {
        "type": "Point",
        "coordinates": [
          -0.338995,
          51.5815021
        ]
      },
      "id": "node/210745603"
    },
    {
      "type": "Feature",
      "properties": {
        "@id": "node/243707562",
        "wikipedia": "en:Greenwich Theatre",
        "wikidata": "Q5604875",
        "wheelchair": "yes",
        "toilets:wheelchair": "yes",
        "amenity": "theatre",
        "name": "Greenwich Theatre"
      },
      "geometry": {
        "type": "Point",
        "coordinates": [
          -0.0076598,
          51.4792552
        ]
      },
      "id": "node/243707562"
    },
    {
      "type": "Feature",
      "properties": {
        "@id": "node/245955704",
        "fhrs:rating": "5",
        "name": "Brixton Ritzy",
        "fhrs:inspectiondate": "2013-12-12",
        "fhrs:id": "483236",
        "fhrs:authority": "Lambeth",
        "amenity": "cinema",
        "addr:street": "Brixton Oval",
        "addr:postcode": "SW2 1JG",
        "addr:housenumber": "1"
      },
      "geometry": {
        "type": "Point",
        "coordinates": [
          -0.1149611,
          51.46115
        ]
      },
      "id": "node/245955704"
    },
    {
      "type": "Feature",
      "properties": {
        "@id": "node/246518191",
        "amenity": "theatre",
        "name": "Piccadilly Comedy Club",
        "toilets": "yes",
        "toilets:access": "customers"
      },
      "geometry": {
        "type": "Point",
        "coordinates": [
          -0.131926,
          51.509736
        ]
      },
      "id": "node/246518191"
    },
    {
      "type": "Feature",
      "properties": {
        "@id": "node/248042425",
        "addr:city": "Wallington",
        "addr:housename": "The Phoenix Centre",
        "addr:postcode": "SM6 9NZ",
        "addr:street": "Mollison Drive",
        "amenity": "library",
        "name": "The Library @ The Phoenix Centre",
        "phone": "+44 20 8770 4901",
        "website": "https://arena.yourlondonlibrary.net/web/sutton/phoenix-library",
        "wikidata": "Q55184162"
      },
      "geometry": {
        "type": "Point",
        "coordinates": [
          -0.1332357,
          51.353377
        ]
      },
      "id": "node/248042425"
    },
    {
      "type": "Feature",
      "properties": {
        "@id": "node/248932663",
        "amenity": "arts_centre",
        "created_by": "JOSM",
        "name": "Manor Studio",
        "note": "Ballet Studio",
        "website": "http://www.manorballet.com/"
      },
      "geometry": {
        "type": "Point",
        "coordinates": [
          -0.136931,
          51.4665331
        ]
      },
      "id": "node/248932663"
    },
    {
      "type": "Feature",
      "properties": {
        "@id": "node/248932670",
        "wikidata": "Q41820095",
        "amenity": "cinema",
        "created_by": "JOSM",
        "name": "Clapham Picture House"
      },
      "geometry": {
        "type": "Point",
        "coordinates": [
          -0.1381521,
          51.4625014
        ]
      },
      "id": "node/248932670"
    },
    {
      "type": "Feature",
      "properties": {
        "@id": "node/249239141",
        "amenity": "library",
        "name": "Walthamstow Central Library",
        "wikidata": "Q26485794"
      },
      "geometry": {
        "type": "Point",
        "coordinates": [
          -0.0210473,
          51.5843808
        ]
      },
      "id": "node/249239141"
    },
    {
      "type": "Feature",
      "properties": {
        "@id": "node/249562682",
        "created_by": "Potlatch 0.7b",
        "amenity": "library"
      },
      "geometry": {
        "type": "Point",
        "coordinates": [
          -0.0070943,
          51.3997112
        ]
      },
      "id": "node/249562682"
    },
    {
      "type": "Feature",
      "properties": {
        "@id": "node/249565800",
        "amenity": "library",
        "created_by": "Potlatch 0.7b",
        "name": "Stanmore public library",
        "wikidata": "Q55125589"
      },
      "geometry": {
        "type": "Point",
        "coordinates": [
          -0.311549,
          51.6184394
        ]
      },
      "id": "node/249565800"
    },
    {
      "type": "Feature",
      "properties": {
        "@id": "node/249609835",
        "amenity": "library"
      },
      "geometry": {
        "type": "Point",
        "coordinates": [
          -0.014026,
          51.3758514
        ]
      },
      "id": "node/249609835"
    },
    {
      "type": "Feature",
      "properties": {
        "@id": "node/250807406",
        "wikidata": "Q55125440",
        "amenity": "library",
        "name": "West Ealing Library"
      },
      "geometry": {
        "type": "Point",
        "coordinates": [
          -0.3245923,
          51.5094007
        ]
      },
      "id": "node/250807406"
    },
    {
      "type": "Feature",
      "properties": {
        "@id": "node/251007845",
        "amenity": "library",
        "created_by": "Potlatch 0.10",
        "name": "South Chingford Library"
      },
      "geometry": {
        "type": "Point",
        "coordinates": [
          -0.0209765,
          51.6169414
        ]
      },
      "id": "node/251007845"
    },
    {
      "type": "Feature",
      "properties": {
        "@id": "node/252524762",
        "created_by": "Potlatch 0.10b",
        "phone": "+442083562539",
        "wikidata": "Q55125518",
        "website": "http://www.hackney.gov.uk/shoreditch-library",
        "addr:housenumber": "80",
        "addr:postcode": "N1 6LP",
        "addr:street": "Hoxton Street",
        "amenity": "library",
        "email": "info@hackney.gov.uk",
        "internet_access": "wlan",
        "name": "Shoreditch Library",
        "opening_hours": "Mo-Th 10:00-20:00; Fr 10:00-18:00; Sa 10:00-17:00"
      },
      "geometry": {
        "type": "Point",
        "coordinates": [
          -0.0800915,
          51.5301768
        ]
      },
      "id": "node/252524762"
    },
    {
      "type": "Feature",
      "properties": {
        "@id": "node/252643311",
        "name": "Manor Park Library",
        "addr:street": "Romford Road",
        "amenity": "library"
      },
      "geometry": {
        "type": "Point",
        "coordinates": [
          0.0537466,
          51.5529983
        ]
      },
      "id": "node/252643311"
    },
    {
      "type": "Feature",
      "properties": {
        "@id": "node/253029651",
        "amenity": "community_centre",
        "name": "Sutton Youth Centre"
      },
      "geometry": {
        "type": "Point",
        "coordinates": [
          -0.1996611,
          51.3643805
        ]
      },
      "id": "node/253029651"
    },
    {
      "type": "Feature",
      "properties": {
        "@id": "node/255468494",
        "name": "Paddington Childen's Library",
        "amenity": "library"
      },
      "geometry": {
        "type": "Point",
        "coordinates": [
          -0.1892622,
          51.5183892
        ]
      },
      "id": "node/255468494"
    },
    {
      "type": "Feature",
      "properties": {
        "@id": "node/257809707",
        "amenity": "arts_centre"
      },
      "geometry": {
        "type": "Point",
        "coordinates": [
          -0.1764134,
          51.6128063
        ]
      },
      "id": "node/257809707"
    },
    {
      "type": "Feature",
      "properties": {
        "@id": "node/259711313",
        "internet_access": "public",
        "wikipedia": "en:Dulwich Library",
        "wikidata": "Q5313551",
        "operator": "Southwark Council",
        "name": "Dulwich Library",
        "amenity": "library"
      },
      "geometry": {
        "type": "Point",
        "coordinates": [
          -0.0744988,
          51.448832
        ]
      },
      "id": "node/259711313"
    },
    {
      "type": "Feature",
      "properties": {
        "@id": "node/261310659",
        "wikidata": "Q50735533",
        "amenity": "library",
        "created_by": "JOSM",
        "name": "South Lambeth Library"
      },
      "geometry": {
        "type": "Point",
        "coordinates": [
          -0.1239333,
          51.4792918
        ]
      },
      "id": "node/261310659"
    },
    {
      "type": "Feature",
      "properties": {
        "@id": "node/261325964",
        "name": "Wheatsheaf Hall Community Centre",
        "amenity": "community_centre",
        "created_by": "JOSM"
      },
      "geometry": {
        "type": "Point",
        "coordinates": [
          -0.1252827,
          51.4808858
        ]
      },
      "id": "node/261325964"
    },
    {
      "type": "Feature",
      "properties": {
        "@id": "node/262311224",
        "amenity": "community_centre",
        "name": "Tredegar Community Centre"
      },
      "geometry": {
        "type": "Point",
        "coordinates": [
          -0.0241033,
          51.5301941
        ]
      },
      "id": "node/262311224"
    },
    {
      "type": "Feature",
      "properties": {
        "@id": "node/262566147",
        "amenity": "community_centre",
        "created_by": "JOSM",
        "name": "Coles Crescent Community Centre"
      },
      "geometry": {
        "type": "Point",
        "coordinates": [
          -0.3585607,
          51.5683375
        ]
      },
      "id": "node/262566147"
    },
    {
      "type": "Feature",
      "properties": {
        "@id": "node/264132619",
        "wikidata": "Q55125731",
        "name": "Aldersbrook Library",
        "amenity": "library",
        "created_by": "Potlatch 0.9a"
      },
      "geometry": {
        "type": "Point",
        "coordinates": [
          0.0329596,
          51.5633861
        ]
      },
      "id": "node/264132619"
    },
    {
      "type": "Feature",
      "properties": {
        "@id": "node/264624316",
        "amenity": "nightclub",
        "name": "Club Aquarium",
        "source": "survey;photograph",
        "wheelchair": "limited"
      },
      "geometry": {
        "type": "Point",
        "coordinates": [
          -0.0854498,
          51.5260155
        ]
      },
      "id": "node/264624316"
    },
    {
      "type": "Feature",
      "properties": {
        "@id": "node/264759489",
        "name": "Empire Sutton",
        "amenity": "cinema"
      },
      "geometry": {
        "type": "Point",
        "coordinates": [
          -0.1953102,
          51.3647655
        ]
      },
      "id": "node/264759489"
    },
    {
      "type": "Feature",
      "properties": {
        "@id": "node/266619051",
        "wikidata": "Q55184168",
        "addr:postcode": "KT4 8ES",
        "amenity": "library",
        "name": "Worcester Park Library",
        "phone": "+44 20 8337 1609",
        "postal_code": "KT4 8ES"
      },
      "geometry": {
        "type": "Point",
        "coordinates": [
          -0.2415007,
          51.3781224
        ]
      },
      "id": "node/266619051"
    },
    {
      "type": "Feature",
      "properties": {
        "@id": "node/266889087",
        "amenity": "library",
        "name": "Aragon Public Library"
      },
      "geometry": {
        "type": "Point",
        "coordinates": [
          -0.2199633,
          51.3881527
        ]
      },
      "id": "node/266889087"
    },
    {
      "type": "Feature",
      "properties": {
        "@id": "node/267470837",
        "wikidata": "Q7672924",
        "amenity": "theatre",
        "name": "The Tabard Theatre",
        "website": "http://www.tabardtheatre.co.uk/"
      },
      "geometry": {
        "type": "Point",
        "coordinates": [
          -0.2548747,
          51.4956267
        ]
      },
      "id": "node/267470837"
    },
    {
      "type": "Feature",
      "properties": {
        "@id": "node/267546555",
        "amenity": "library",
        "created_by": "Potlatch 0.9c",
        "wikidata": "Q55183904",
        "name": "Wanstead Library"
      },
      "geometry": {
        "type": "Point",
        "coordinates": [
          0.0252946,
          51.5758096
        ]
      },
      "id": "node/267546555"
    },
    {
      "type": "Feature",
      "properties": {
        "@id": "node/268521790",
        "name": "Chiswick Area Library",
        "amenity": "library"
      },
      "geometry": {
        "type": "Point",
        "coordinates": [
          -0.2608975,
          51.4918692
        ]
      },
      "id": "node/268521790"
    },
    {
      "type": "Feature",
      "properties": {
        "@id": "node/268585969",
        "website": "http://www.discover.org.uk/",
        "operator": "Discover",
        "addr:city": "London",
        "addr:full": "383-387 High Street, London, E15 4QZ",
        "addr:postcode": "E15 4QZ",
        "amenity": "community_centre",
        "entrance": "yes",
        "name": "Discover Children's Story Centre",
        "note": "Not quite a nursery/kindergarten, as for 0-11 years and parents with children. Marked as Community Centre. Registered Charity"
      },
      "geometry": {
        "type": "Point",
        "coordinates": [
          -0.0003979,
          51.5390084
        ]
      },
      "id": "node/268585969"
    },
    {
      "type": "Feature",
      "properties": {
        "@id": "node/273460873",
        "amenity": "library",
        "created_by": "Potlatch 0.9c",
        "name": "St Martins Library Centre"
      },
      "geometry": {
        "type": "Point",
        "coordinates": [
          -0.1116142,
          51.444615
        ]
      },
      "id": "node/273460873"
    },
    {
      "type": "Feature",
      "properties": {
        "@id": "node/275402349",
        "amenity": "library",
        "name": "Pimlico Library",
        "wikidata": "Q55125936"
      },
      "geometry": {
        "type": "Point",
        "coordinates": [
          -0.137889,
          51.487979
        ]
      },
      "id": "node/275402349"
    },
    {
      "type": "Feature",
      "properties": {
        "@id": "node/276314583",
        "amenity": "library",
        "name": "North Chingford Library",
        "wikidata": "Q55125891"
      },
      "geometry": {
        "type": "Point",
        "coordinates": [
          0.0028913,
          51.6315334
        ]
      },
      "id": "node/276314583"
    },
    {
      "type": "Feature",
      "properties": {
        "@id": "node/278080095",
        "addr:postcode": "SM5 1JJ",
        "amenity": "library",
        "name": "Middleton Circle Library",
        "phone": "+44 20 8648 6608"
      },
      "geometry": {
        "type": "Point",
        "coordinates": [
          -0.1746541,
          51.3855897
        ]
      },
      "id": "node/278080095"
    },
    {
      "type": "Feature",
      "properties": {
        "@id": "node/281480292",
        "amenity": "library",
        "created_by": "Potlatch 0.10",
        "name": "South Woodford Library",
        "wikidata": "Q55183897"
      },
      "geometry": {
        "type": "Point",
        "coordinates": [
          0.022088,
          51.5972032
        ]
      },
      "id": "node/281480292"
    },
    {
      "type": "Feature",
      "properties": {
        "@id": "node/282594750",
        "amenity": "library",
        "name": "Custom House Library",
        "wikidata": "Q55125773"
      },
      "geometry": {
        "type": "Point",
        "coordinates": [
          0.0316598,
          51.5152034
        ]
      },
      "id": "node/282594750"
    },
    {
      "type": "Feature",
      "properties": {
        "@id": "node/282843554",
        "amenity": "community_centre",
        "name": "Britannia Village Community Hall"
      },
      "geometry": {
        "type": "Point",
        "coordinates": [
          0.0257682,
          51.5043236
        ]
      },
      "id": "node/282843554"
    },
    {
      "type": "Feature",
      "properties": {
        "@id": "node/283610436",
        "amenity": "community_centre",
        "name": "Saint Barnabas Parish Hall"
      },
      "geometry": {
        "type": "Point",
        "coordinates": [
          -0.0860961,
          51.4516661
        ]
      },
      "id": "node/283610436"
    },
    {
      "type": "Feature",
      "properties": {
        "@id": "node/283862399",
        "addr:country": "GB",
        "name": "Ensign Youth Club",
        "community_centre:for": "juvenile",
        "addr:city": "London",
        "addr:postcode": "E1 8HY",
        "addr:street": "Wellclose Square",
        "amenity": "community_centre"
      },
      "geometry": {
        "type": "Point",
        "coordinates": [
          -0.065623,
          51.5096585
        ]
      },
      "id": "node/283862399"
    },
    {
      "type": "Feature",
      "properties": {
        "@id": "node/290517882",
        "amenity": "library"
      },
      "geometry": {
        "type": "Point",
        "coordinates": [
          -0.4111276,
          51.4463954
        ]
      },
      "id": "node/290517882"
    },
    {
      "type": "Feature",
      "properties": {
        "@id": "node/290971515",
        "addr:city": "Mitcham",
        "addr:housenumber": "49",
        "addr:postcode": "CR4 2DZ",
        "addr:street": "Woodland Way",
        "amenity": "community_centre",
        "community_centre": "community_hall",
        "fhrs:authority": "Merton",
        "fhrs:id": "375825",
        "name": "North East Mitcham Community Association"
      },
      "geometry": {
        "type": "Point",
        "coordinates": [
          -0.1539666,
          51.4168576
        ]
      },
      "id": "node/290971515"
    },
    {
      "type": "Feature",
      "properties": {
        "@id": "node/290975429",
        "amenity": "cinema",
        "name": "CINEWORLD Fulham Road",
        "wikidata": "Q32270636"
      },
      "geometry": {
        "type": "Point",
        "coordinates": [
          -0.1793663,
          51.4870756
        ]
      },
      "id": "node/290975429"
    },
    {
      "type": "Feature",
      "properties": {
        "@id": "node/291951100",
        "source": "survey;notes",
        "opening_hours": "Mo-Fr 16:00-00:00",
        "postal_code": "EC1Y 4SB",
        "addr:housenumber": "47",
        "addr:street": "Chiswell Street",
        "amenity": "nightclub",
        "food": "yes",
        "name": "Parker McMillan"
      },
      "geometry": {
        "type": "Point",
        "coordinates": [
          -0.0916939,
          51.521075
        ]
      },
      "id": "node/291951100"
    },
    {
      "type": "Feature",
      "properties": {
        "@id": "node/292130473",
        "opening_hours": "Mo,Tu,Th,Fr 09:00-19:00; We 10:00-19:00; Sa 09:00-17:00; Su, PH off",
        "website": "http://www.haringey.gov.uk/libraries-sport-and-leisure/libraries/highgate-library",
        "phone": "+442084894560",
        "addr:housenumber": "1",
        "addr:postcode": "N6 5QJ",
        "addr:street": "Shepherd's Hill",
        "amenity": "library",
        "name": "Highgate Library",
        "operator": "Haringey Council",
        "entrance": "main"
      },
      "geometry": {
        "type": "Point",
        "coordinates": [
          -0.143668,
          51.5770925
        ]
      },
      "id": "node/292130473"
    },
    {
      "type": "Feature",
      "properties": {
        "@id": "node/293227632",
        "amenity": "library",
        "name": "Central Library Bexleyheath"
      },
      "geometry": {
        "type": "Point",
        "coordinates": [
          0.1436681,
          51.45584
        ]
      },
      "id": "node/293227632"
    },
    {
      "type": "Feature",
      "properties": {
        "@id": "node/293397147",
        "amenity": "library"
      },
      "geometry": {
        "type": "Point",
        "coordinates": [
          -0.3026671,
          51.5124197
        ]
      },
      "id": "node/293397147"
    },
    {
      "type": "Feature",
      "properties": {
        "@id": "node/293653803",
        "name": "Muswell Hill Centre",
        "created_by": "Potlatch 0.10b",
        "amenity": "community_centre"
      },
      "geometry": {
        "type": "Point",
        "coordinates": [
          -0.1417657,
          51.5895001
        ]
      },
      "id": "node/293653803"
    },
    {
      "type": "Feature",
      "properties": {
        "@id": "node/293741403",
        "wikidata": "Q55125940",
        "name": "St. John's Wood Library",
        "amenity": "library"
      },
      "geometry": {
        "type": "Point",
        "coordinates": [
          -0.1723999,
          51.5337024
        ]
      },
      "id": "node/293741403"
    },
    {
      "type": "Feature",
      "properties": {
        "@id": "node/294952732",
        "amenity": "community_centre",
        "name": "Penge East Community Centre"
      },
      "geometry": {
        "type": "Point",
        "coordinates": [
          -0.0554185,
          51.4195515
        ]
      },
      "id": "node/294952732"
    },
    {
      "type": "Feature",
      "properties": {
        "@id": "node/295709722",
        "wikidata": "Q7994467",
        "wikipedia": "en:The White Bear Theatre",
        "name": "White Bear Theatre Pub",
        "amenity": "theatre"
      },
      "geometry": {
        "type": "Point",
        "coordinates": [
          -0.1077974,
          51.4867554
        ]
      },
      "id": "node/295709722"
    },
    {
      "type": "Feature",
      "properties": {
        "@id": "node/296889729",
        "amenity": "nightclub",
        "name": "Bullet",
        "source": "TMJ-Mobile_0.6.2"
      },
      "geometry": {
        "type": "Point",
        "coordinates": [
          -0.1419205,
          51.5450403
        ]
      },
      "id": "node/296889729"
    },
    {
      "type": "Feature",
      "properties": {
        "@id": "node/296889738",
        "amenity": "nightclub",
        "name": "Bar Monsta",
        "source": "TMJ-Mobile_0.6.2"
      },
      "geometry": {
        "type": "Point",
        "coordinates": [
          -0.1420967,
          51.5400362
        ]
      },
      "id": "node/296889738"
    },
    {
      "type": "Feature",
      "properties": {
        "@id": "node/299028906",
        "amenity": "cinema",
        "name": "Phoenix Cinema",
        "wikidata": "Q7186809"
      },
      "geometry": {
        "type": "Point",
        "coordinates": [
          -0.1637085,
          51.5885079
        ]
      },
      "id": "node/299028906"
    },
    {
      "type": "Feature",
      "properties": {
        "@id": "node/299124495",
        "addr:city": "Croydon",
        "addr:housename": "Croydon Clocktower",
        "addr:postcode": "CR9 1ET",
        "addr:street": "Katharine Street",
        "amenity": "cinema",
        "fhrs:authority": "Croydon",
        "fhrs:id": "4559",
        "name": "David Lean Cinema",
        "wheelchair": "yes",
        "wikidata": "Q5236404",
        "wikipedia": "en:David Lean Cinema"
      },
      "geometry": {
        "type": "Point",
        "coordinates": [
          -0.0990117,
          51.3721316
        ]
      },
      "id": "node/299124495"
    },
    {
      "type": "Feature",
      "properties": {
        "@id": "node/299129216",
        "wheelchair": "yes",
        "fhrs:id": "15177",
        "amenity": "cinema",
        "name": "Vue (Croydon Grant's)",
        "fhrs:authority": "Croydon",
        "addr:city": "Croydon",
        "addr:housenumber": "14",
        "addr:postcode": "CR0 1GT",
        "addr:street": "High Street"
      },
      "geometry": {
        "type": "Point",
        "coordinates": [
          -0.1007766,
          51.3729644
        ]
      },
      "id": "node/299129216"
    },
    {
      "type": "Feature",
      "properties": {
        "@id": "node/299308588",
        "wikipedia": "en:King's Head Theatre",
        "wikidata": "Q6410962",
        "name": "King's Head",
        "amenity": "theatre"
      },
      "geometry": {
        "type": "Point",
        "coordinates": [
          -0.1025991,
          51.5383261
        ]
      },
      "id": "node/299308588"
    },
    {
      "type": "Feature",
      "properties": {
        "@id": "node/299597608",
        "wikipedia": "en:Almeida Theatre",
        "amenity": "theatre",
        "name": "Almeida Theatre",
        "wikidata": "Q2839111"
      },
      "geometry": {
        "type": "Point",
        "coordinates": [
          -0.1030764,
          51.5394403
        ]
      },
      "id": "node/299597608"
    },
    {
      "type": "Feature",
      "properties": {
        "@id": "node/300425890",
        "wikidata": "Q52955060",
        "name": "Brompton Library",
        "amenity": "library"
      },
      "geometry": {
        "type": "Point",
        "coordinates": [
          -0.1882317,
          51.4900178
        ]
      },
      "id": "node/300425890"
    },
    {
      "type": "Feature",
      "properties": {
        "@id": "node/300614361",
        "name": "Odeon Cinema",
        "amenity": "cinema"
      },
      "geometry": {
        "type": "Point",
        "coordinates": [
          -0.0312303,
          51.407154
        ]
      },
      "id": "node/300614361"
    },
    {
      "type": "Feature",
      "properties": {
        "@id": "node/302410705",
        "amenity": "theatre",
        "name": "The Cockpit Theatre",
        "wikidata": "Q5139652"
      },
      "geometry": {
        "type": "Point",
        "coordinates": [
          -0.169444,
          51.5245576
        ]
      },
      "id": "node/302410705"
    },
    {
      "type": "Feature",
      "properties": {
        "@id": "node/304465255",
        "amenity": "community_centre",
        "name": "Church End & Roundwood Unity Centre"
      },
      "geometry": {
        "type": "Point",
        "coordinates": [
          -0.253485,
          51.5443076
        ]
      },
      "id": "node/304465255"
    },
    {
      "type": "Feature",
      "properties": {
        "@id": "node/304927475",
        "wikidata": "Q55125701",
        "amenity": "library",
        "name": "Beckenham Library",
        "source": "TMJ-Mobile_0.6.3",
        "wheelchair": "yes"
      },
      "geometry": {
        "type": "Point",
        "coordinates": [
          -0.0369874,
          51.4084854
        ]
      },
      "id": "node/304927475"
    },
    {
      "type": "Feature",
      "properties": {
        "@id": "node/305048831",
        "created_by": "Potlatch 0.10e",
        "amenity": "library",
        "name": "Kentish Town Library",
        "wikidata": "Q55125367"
      },
      "geometry": {
        "type": "Point",
        "coordinates": [
          -0.1405903,
          51.5500626
        ]
      },
      "id": "node/305048831"
    },
    {
      "type": "Feature",
      "properties": {
        "@id": "node/306042840",
        "wikidata": "Q42164191",
        "opening_hours": "Mo-Fr 09:30-24:00; Sa-Su 10:30-24:00",
        "amenity": "cinema",
        "contact:website": "https://www.myvue.com/cinema/islington",
        "level": "1;2",
        "name": "Vue Islington"
      },
      "geometry": {
        "type": "Point",
        "coordinates": [
          -0.1058269,
          51.5343822
        ]
      },
      "id": "node/306042840"
    },
    {
      "type": "Feature",
      "properties": {
        "@id": "node/306495283",
        "name": "The Fountain Youth Centre",
        "amenity": "community_centre"
      },
      "geometry": {
        "type": "Point",
        "coordinates": [
          -0.2563982,
          51.3989866
        ]
      },
      "id": "node/306495283"
    },
    {
      "type": "Feature",
      "properties": {
        "@id": "node/307712798",
        "wikidata": "Q55125877",
        "name": "Idea Store, Bow",
        "amenity": "library"
      },
      "geometry": {
        "type": "Point",
        "coordinates": [
          -0.029746,
          51.5327503
        ]
      },
      "id": "node/307712798"
    },
    {
      "type": "Feature",
      "properties": {
        "@id": "node/312188169",
        "amenity": "library",
        "created_by": "Potlatch 0.10f",
        "name": "Tudor Library"
      },
      "geometry": {
        "type": "Point",
        "coordinates": [
          -0.2975396,
          51.4263456
        ]
      },
      "id": "node/312188169"
    },
    {
      "type": "Feature",
      "properties": {
        "@id": "node/313349354",
        "website": "http://www.the100club.co.uk/",
        "wikipedia": "en:100 Club",
        "wikidata": "Q8535",
        "source:postcode": "FSA Food Hygiene Ratings Database",
        "name": "100 Club",
        "addr:city": "London",
        "addr:housenumber": "100",
        "addr:postcode": "W1D 1LL",
        "addr:street": "Oxford Street",
        "amenity": "nightclub",
        "fhrs:confidence_management": "10",
        "fhrs:hygiene": "10",
        "fhrs:id": "427714",
        "fhrs:local_authority_id": "00159/0100/0/001",
        "fhrs:rating": "2",
        "fhrs:structural": "15"
      },
      "geometry": {
        "type": "Point",
        "coordinates": [
          -0.1353568,
          51.5161082
        ]
      },
      "id": "node/313349354"
    },
    {
      "type": "Feature",
      "properties": {
        "@id": "node/314042298",
        "amenity": "library",
        "created_by": "Potlatch 0.10f"
      },
      "geometry": {
        "type": "Point",
        "coordinates": [
          0.0255393,
          51.5297324
        ]
      },
      "id": "node/314042298"
    },
    {
      "type": "Feature",
      "properties": {
        "@id": "node/321239941",
        "alt_name": "Lyric",
        "amenity": "theatre",
        "name": "Lyric Hammersmith",
        "wikidata": "Q12061418",
        "wikipedia": "en:Lyric Theatre (Hammersmith)"
      },
      "geometry": {
        "type": "Point",
        "coordinates": [
          -0.2264834,
          51.4930429
        ]
      },
      "id": "node/321239941"
    },
    {
      "type": "Feature",
      "properties": {
        "@id": "node/322124076",
        "addr:city": "London",
        "addr:housenumber": "7-11",
        "addr:postcode": "E6 1PW",
        "addr:street": "Barking Road",
        "amenity": "cinema",
        "contact:website": "http://www.boleyncinemas.com/",
        "fhrs:id": "830636",
        "name": "Boleyn Cinema",
        "source:addr": "FHRS Open Data",
        "wikidata": "Q42118339"
      },
      "geometry": {
        "type": "Point",
        "coordinates": [
          0.0385392,
          51.5304747
        ]
      },
      "id": "node/322124076"
    },
    {
      "type": "Feature",
      "properties": {
        "@id": "node/326122794",
        "name": "Bush Hill Park Library",
        "amenity": "library"
      },
      "geometry": {
        "type": "Point",
        "coordinates": [
          -0.0665088,
          51.6453233
        ]
      },
      "id": "node/326122794"
    },
    {
      "type": "Feature",
      "properties": {
        "@id": "node/330270870",
        "name": "Southgate Public Library",
        "amenity": "library"
      },
      "geometry": {
        "type": "Point",
        "coordinates": [
          -0.1282901,
          51.6303732
        ]
      },
      "id": "node/330270870"
    },
    {
      "type": "Feature",
      "properties": {
        "@id": "node/331880875",
        "amenity": "nightclub",
        "name": "Lucky Voice",
        "note": "Karaoke"
      },
      "geometry": {
        "type": "Point",
        "coordinates": [
          -0.1030753,
          51.5414402
        ]
      },
      "id": "node/331880875"
    },
    {
      "type": "Feature",
      "properties": {
        "@id": "node/331880921",
        "name": "Jam & Rye",
        "amenity": "nightclub"
      },
      "geometry": {
        "type": "Point",
        "coordinates": [
          -0.1033857,
          51.5460046
        ]
      },
      "id": "node/331880921"
    },
    {
      "type": "Feature",
      "properties": {
        "@id": "node/332118767",
        "website": "http://www.shaw-theatre.com",
        "wikipedia": "en:Shaw Theatre",
        "addr:housenumber": "100-110",
        "addr:street": "Euston Road",
        "amenity": "theatre",
        "name": "Shaw Theatre",
        "postal_code": "NW1 2AJ",
        "wheelchair": "yes",
        "wikidata": "Q7491204"
      },
      "geometry": {
        "type": "Point",
        "coordinates": [
          -0.1281323,
          51.5288526
        ]
      },
      "id": "node/332118767"
    },
    {
      "type": "Feature",
      "properties": {
        "@id": "node/332795709",
        "amenity": "library",
        "name": "West Library",
        "operator": "Islington Council",
        "wikidata": "Q26570049"
      },
      "geometry": {
        "type": "Point",
        "coordinates": [
          -0.1162274,
          51.5407474
        ]
      },
      "id": "node/332795709"
    },
    {
      "type": "Feature",
      "properties": {
        "@id": "node/333300780",
        "wheelchair": "yes",
        "toilets:wheelchair": "yes",
        "name": "Enfield Library",
        "addr:housenumber": "66",
        "addr:postcode": "EN2 6AX",
        "addr:street": "Church Street",
        "amenity": "library"
      },
      "geometry": {
        "type": "Point",
        "coordinates": [
          -0.0861323,
          51.6517022
        ]
      },
      "id": "node/333300780"
    },
    {
      "type": "Feature",
      "properties": {
        "@id": "node/334370373",
        "wikipedia": "en:Courtyard Theatre, London",
        "wikidata": "Q5178796",
        "postal_code": "N1 6EU",
        "website": "http://www.thecourtyard.org.uk",
        "addr:housenumber": "40",
        "addr:street": "Pitfield Street",
        "amenity": "theatre",
        "name": "The Courtyard"
      },
      "geometry": {
        "type": "Point",
        "coordinates": [
          -0.0833863,
          51.5279838
        ]
      },
      "id": "node/334370373"
    },
    {
      "type": "Feature",
      "properties": {
        "@id": "node/334686817",
        "name": "Anerley Library",
        "amenity": "library",
        "addr:postcode": "SE20 8BD",
        "addr:street": "Anerley Road"
      },
      "geometry": {
        "type": "Point",
        "coordinates": [
          -0.0673109,
          51.4118519
        ]
      },
      "id": "node/334686817"
    },
    {
      "type": "Feature",
      "properties": {
        "@id": "node/336335585",
        "wikidata": "Q55125631",
        "amenity": "library",
        "name": "Manor Farm Library",
        "wheelchair": "yes"
      },
      "geometry": {
        "type": "Point",
        "coordinates": [
          -0.428254,
          51.5780239
        ]
      },
      "id": "node/336335585"
    },
    {
      "type": "Feature",
      "properties": {
        "@id": "node/336352867",
        "amenity": "theatre",
        "name": "Winston Churchilll Hall"
      },
      "geometry": {
        "type": "Point",
        "coordinates": [
          -0.4285715,
          51.5789947
        ]
      },
      "id": "node/336352867"
    },
    {
      "type": "Feature",
      "properties": {
        "@id": "node/345886715",
        "wikidata": "Q16890141",
        "name": "Charing Cross Theatre",
        "layer": "-1",
        "amenity": "theatre"
      },
      "geometry": {
        "type": "Point",
        "coordinates": [
          -0.1243661,
          51.5076633
        ]
      },
      "id": "node/345886715"
    },
    {
      "type": "Feature",
      "properties": {
        "@id": "node/345887283",
        "gay": "yes",
        "addr:city": "London",
        "addr:country": "GB",
        "addr:street": "Villiers Street",
        "amenity": "nightclub",
        "contact:email": "info@heavennightclublondon.com",
        "contact:phone": "+44 20 7930 2020",
        "layer": "-1",
        "lgbtq": "primary",
        "name": "Heaven",
        "payment:american_express": "yes",
        "payment:card_minimum": "10",
        "postal_code": "WC2N 6NG",
        "website": "http://www.heavennightclub-london.com",
        "wheelchair": "no",
        "wheelchair:description": "For further information contact us at mark@heavennightclublondon.com or 0207 930 2020",
        "wikidata": "Q5694616"
      },
      "geometry": {
        "type": "Point",
        "coordinates": [
          -0.1245597,
          51.507865
        ]
      },
      "id": "node/345887283"
    },
    {
      "type": "Feature",
      "properties": {
        "@id": "node/348116241",
        "name": "People Club / Dancehall club",
        "amenity": "nightclub"
      },
      "geometry": {
        "type": "Point",
        "coordinates": [
          -0.1064203,
          51.5479067
        ]
      },
      "id": "node/348116241"
    },
    {
      "type": "Feature",
      "properties": {
        "@id": "node/348445949",
        "amenity": "community_centre",
        "name": "Glyndon Community Centre"
      },
      "geometry": {
        "type": "Point",
        "coordinates": [
          0.0777747,
          51.4863758
        ]
      },
      "id": "node/348445949"
    },
    {
      "type": "Feature",
      "properties": {
        "@id": "node/348911998",
        "addr:housenumber": "10",
        "addr:street": "Brewer Street",
        "amenity": "nightclub",
        "name": "Escape",
        "website": "escapesoho.com"
      },
      "geometry": {
        "type": "Point",
        "coordinates": [
          -0.1338386,
          51.5124556
        ]
      },
      "id": "node/348911998"
    },
    {
      "type": "Feature",
      "properties": {
        "@id": "node/348913121",
        "addr:city": "London",
        "addr:housenumber": "8-10",
        "addr:street": "Brewer Street",
        "amenity": "nightclub",
        "fhrs:confidence_management": "10",
        "fhrs:hygiene": "5",
        "fhrs:id": "413298",
        "fhrs:local_authority_id": "01132/0008/0/000",
        "fhrs:rating": "2",
        "fhrs:structural": "15",
        "name": "Madame Jojos",
        "postal_code": "W1F 0SE",
        "source:addr": "FSA Food Hygiene Ratings Database",
        "source:postcode": "FSA Food Hygiene Ratings Database"
      },
      "geometry": {
        "type": "Point",
        "coordinates": [
          -0.133727,
          51.512509
        ]
      },
      "id": "node/348913121"
    },
    {
      "type": "Feature",
      "properties": {
        "@id": "node/350370447",
        "wikidata": "Q55125390",
        "opening_hours": "Mo,We-Fr 09:30-17:30, Tu 09:30-18:30",
        "addr:housename": "Little Hill House",
        "addr:postcode": "EC4A 3JR",
        "amenity": "library",
        "name": "Shoe Lane Library"
      },
      "geometry": {
        "type": "Point",
        "coordinates": [
          -0.1064782,
          51.5154661
        ]
      },
      "id": "node/350370447"
    },
    {
      "type": "Feature",
      "properties": {
        "@id": "node/353319091",
        "name": "Tramshed Theatre",
        "amenity": "theatre"
      },
      "geometry": {
        "type": "Point",
        "coordinates": [
          0.0680071,
          51.4894756
        ]
      },
      "id": "node/353319091"
    },
    {
      "type": "Feature",
      "properties": {
        "@id": "node/354462293",
        "created_by": "Merkaartor 0.13",
        "amenity": "arts_centre",
        "name": "East London Drama and Music Centre"
      },
      "geometry": {
        "type": "Point",
        "coordinates": [
          -0.0053778,
          51.5527247
        ]
      },
      "id": "node/354462293"
    },
    {
      "type": "Feature",
      "properties": {
        "@id": "node/354890137",
        "wikidata": "Q5118228",
        "name": "The Churchill",
        "amenity": "theatre"
      },
      "geometry": {
        "type": "Point",
        "coordinates": [
          0.0143007,
          51.4035538
        ]
      },
      "id": "node/354890137"
    },
    {
      "type": "Feature",
      "properties": {
        "@id": "node/354890228",
        "website": "https://arena.yourlondonlibrary.net/web/bromley/central-library",
        "operator": "London Borough of Bromley",
        "opening_hours": "Mo-We,Fr 09:30-18:00; Sa 09:30-17:00; Th 09:30-20:00; Su,PH off",
        "name": "Bromley Central Library",
        "addr:postcode": "BR1 1EX",
        "addr:street": "High Street",
        "amenity": "library"
      },
      "geometry": {
        "type": "Point",
        "coordinates": [
          0.0146503,
          51.4036103
        ]
      },
      "id": "node/354890228"
    },
    {
      "type": "Feature",
      "properties": {
        "@id": "node/357362063",
        "amenity": "theatre",
        "name": "Young Actors Theatre",
        "wikipedia": "en:Young Actors Theatre (Islington)"
      },
      "geometry": {
        "type": "Point",
        "coordinates": [
          -0.1106175,
          51.5361068
        ]
      },
      "id": "node/357362063"
    },
    {
      "type": "Feature",
      "properties": {
        "@id": "node/360043073",
        "wikidata": "Q7735799",
        "name": "The Garage",
        "amenity": "nightclub"
      },
      "geometry": {
        "type": "Point",
        "coordinates": [
          -0.1039603,
          51.5467543
        ]
      },
      "id": "node/360043073"
    },
    {
      "type": "Feature",
      "properties": {
        "@id": "node/368025671",
        "website": "http://www.lightboxlondon.net/",
        "addr:city": "London",
        "addr:housenumber": "6a",
        "addr:street": "South Lambeth Place",
        "amenity": "nightclub",
        "name": "Lightbox",
        "postal_code": "SW8 1SP"
      },
      "geometry": {
        "type": "Point",
        "coordinates": [
          -0.12352,
          51.4854252
        ]
      },
      "id": "node/368025671"
    },
    {
      "type": "Feature",
      "properties": {
        "@id": "node/368369090",
        "website": "http://southwarkplayhouse.co.uk/",
        "wikipedia": "en:Southwark Playhouse",
        "wikidata": "Q7571159",
        "amenity": "theatre",
        "name": "Southwark Playhouse",
        "addr:city": "London",
        "addr:housenumber": "77-85",
        "addr:postcode": "SE1 6BD",
        "addr:street": "Newington Causeway"
      },
      "geometry": {
        "type": "Point",
        "coordinates": [
          -0.0983738,
          51.4975801
        ]
      },
      "id": "node/368369090"
    },
    {
      "type": "Feature",
      "properties": {
        "@id": "node/370093772",
        "phone": "+44 20 8888 9992",
        "FIXME": "tag as place of worship? not sure. Its gospel choir cummunity type place",
        "name": "Faith Miracle Centre",
        "amenity": "community_centre"
      },
      "geometry": {
        "type": "Point",
        "coordinates": [
          -0.1149999,
          51.5935792
        ]
      },
      "id": "node/370093772"
    },
    {
      "type": "Feature",
      "properties": {
        "@id": "node/371525331",
        "fhrs:id": "95996",
        "fhrs:local_authority_id": "28937",
        "fhrs:name": "Indo @ Rich Mix",
        "wheelchair": "yes",
        "source:addr": "FHRS Open Data",
        "amenity": "cinema",
        "addr:street": "Bethnal Green Road",
        "addr:postcode": "E1 6LA",
        "name": "Rich Mix",
        "wikidata": "Q7323366",
        "addr:city": "London",
        "addr:housenumber": "35-47"
      },
      "geometry": {
        "type": "Point",
        "coordinates": [
          -0.0730953,
          51.5243518
        ]
      },
      "id": "node/371525331"
    },
    {
      "type": "Feature",
      "properties": {
        "@id": "node/379422470",
        "amenity": "arts_centre",
        "name": "Stanley Picker Gallery"
      },
      "geometry": {
        "type": "Point",
        "coordinates": [
          -0.298256,
          51.4050203
        ]
      },
      "id": "node/379422470"
    },
    {
      "type": "Feature",
      "properties": {
        "@id": "node/382329994",
        "amenity": "theatre",
        "name": "Harrow Arts Centre",
        "wikidata": "Q5666497"
      },
      "geometry": {
        "type": "Point",
        "coordinates": [
          -0.363693,
          51.6084242
        ]
      },
      "id": "node/382329994"
    },
    {
      "type": "Feature",
      "properties": {
        "@id": "node/391052409",
        "amenity": "community_centre",
        "name": "St Gabriel's Community Centre",
        "note": "Islingon Chinese Association",
        "url": "http://www.islingtonchinese.com/"
      },
      "geometry": {
        "type": "Point",
        "coordinates": [
          -0.1266976,
          51.565426
        ]
      },
      "id": "node/391052409"
    },
    {
      "type": "Feature",
      "properties": {
        "@id": "node/401788093",
        "wikipedia": "en:Erith Playhouse",
        "wikidata": "Q5389574",
        "name": "Erith Playhouse",
        "amenity": "theatre"
      },
      "geometry": {
        "type": "Point",
        "coordinates": [
          0.1813993,
          51.4811331
        ]
      },
      "id": "node/401788093"
    },
    {
      "type": "Feature",
      "properties": {
        "@id": "node/402378383",
        "amenity": "community_centre",
        "name": "Wormholt Tenants and Residents Association Community Centre"
      },
      "geometry": {
        "type": "Point",
        "coordinates": [
          -0.242753,
          51.5138285
        ]
      },
      "id": "node/402378383"
    },
    {
      "type": "Feature",
      "properties": {
        "@id": "node/416380417",
        "operator": "Cineworld",
        "amenity": "cinema",
        "addr:city": "Wandsworth",
        "name": "Cineworld, Wandsworth",
        "addr:street": "Southside Shopping Centre"
      },
      "geometry": {
        "type": "Point",
        "coordinates": [
          -0.1929744,
          51.4542015
        ]
      },
      "id": "node/416380417"
    },
    {
      "type": "Feature",
      "properties": {
        "@id": "node/416622379",
        "amenity": "library",
        "name": "South Ruislip Library",
        "wikidata": "Q55125642"
      },
      "geometry": {
        "type": "Point",
        "coordinates": [
          -0.3950012,
          51.5572778
        ]
      },
      "id": "node/416622379"
    },
    {
      "type": "Feature",
      "properties": {
        "@id": "node/420752260",
        "amenity": "cinema",
        "name": "Empire"
      },
      "geometry": {
        "type": "Point",
        "coordinates": [
          0.0122702,
          51.406685
        ]
      },
      "id": "node/420752260"
    },
    {
      "type": "Feature",
      "properties": {
        "@id": "node/420771879",
        "name": "Delanos",
        "amenity": "nightclub"
      },
      "geometry": {
        "type": "Point",
        "coordinates": [
          0.0164552,
          51.4071547
        ]
      },
      "id": "node/420771879"
    },
    {
      "type": "Feature",
      "properties": {
        "@id": "node/425175062",
        "addr:housenumber": "158",
        "addr:street": "Pentonville Road",
        "amenity": "nightclub",
        "name": "Surya"
      },
      "geometry": {
        "type": "Point",
        "coordinates": [
          -0.1155457,
          51.5314074
        ]
      },
      "id": "node/425175062"
    },
    {
      "type": "Feature",
      "properties": {
        "@id": "node/426569503",
        "amenity": "library",
        "name": "Coldharbour Library",
        "wikidata": "Q55125497"
      },
      "geometry": {
        "type": "Point",
        "coordinates": [
          0.0573514,
          51.4304029
        ]
      },
      "id": "node/426569503"
    },
    {
      "type": "Feature",
      "properties": {
        "@id": "node/430313769",
        "wikidata": "Q55125357",
        "operator": "Bromley Borough Council",
        "addr:postcode": "BR5 2RW",
        "addr:street": "Mickleham Road",
        "amenity": "library",
        "name": "St Paul's Cray Library",
        "opening_hours": "Mo,Tu,Th 09:30-13:00,14:00-17:30; Sa 09:30-13:00,14:00-17:00; We,Fr,Su, PH off"
      },
      "geometry": {
        "type": "Point",
        "coordinates": [
          0.1032603,
          51.4045695
        ]
      },
      "id": "node/430313769"
    },
    {
      "type": "Feature",
      "properties": {
        "@id": "node/430490801",
        "amenity": "library",
        "name": "Blackheath Village Library"
      },
      "geometry": {
        "type": "Point",
        "coordinates": [
          0.0096731,
          51.46612
        ]
      },
      "id": "node/430490801"
    },
    {
      "type": "Feature",
      "properties": {
        "@id": "node/430832360",
        "wikidata": "Q5025824",
        "wheelchair": "no",
        "addr:city": "London",
        "addr:country": "GB",
        "addr:housenumber": "174",
        "addr:postcode": "NW1 0NE",
        "addr:street": "Camden High St",
        "amenity": "nightclub",
        "name": "The Underworld"
      },
      "geometry": {
        "type": "Point",
        "coordinates": [
          -0.1421161,
          51.5390929
        ]
      },
      "id": "node/430832360"
    },
    {
      "type": "Feature",
      "properties": {
        "@id": "node/434565670",
        "wikidata": "Q55125670",
        "name": "Lewis Carroll Children's Library",
        "addr:postcode": "N1 0ST",
        "amenity": "library"
      },
      "geometry": {
        "type": "Point",
        "coordinates": [
          -0.1189539,
          51.537135
        ]
      },
      "id": "node/434565670"
    },
    {
      "type": "Feature",
      "properties": {
        "@id": "node/435554216",
        "amenity": "library",
        "name": "Ridge Avenue Library",
        "wikidata": "Q55125484"
      },
      "geometry": {
        "type": "Point",
        "coordinates": [
          -0.0819101,
          51.6361554
        ]
      },
      "id": "node/435554216"
    },
    {
      "type": "Feature",
      "properties": {
        "@id": "node/441291178",
        "amenity": "library",
        "name": "Plumstead Library",
        "wikidata": "Q27087693"
      },
      "geometry": {
        "type": "Point",
        "coordinates": [
          0.096305,
          51.4862491
        ]
      },
      "id": "node/441291178"
    },
    {
      "type": "Feature",
      "properties": {
        "@id": "node/442518406",
        "amenity": "cinema",
        "name": "Coronet"
      },
      "geometry": {
        "type": "Point",
        "coordinates": [
          -0.0988746,
          51.4948856
        ]
      },
      "id": "node/442518406"
    },
    {
      "type": "Feature",
      "properties": {
        "@id": "node/443416789",
        "amenity": "library"
      },
      "geometry": {
        "type": "Point",
        "coordinates": [
          0.1809829,
          51.4501044
        ]
      },
      "id": "node/443416789"
    },
    {
      "type": "Feature",
      "properties": {
        "@id": "node/443866608",
        "amenity": "community_centre",
        "name": "The Noah's Ark"
      },
      "geometry": {
        "type": "Point",
        "coordinates": [
          -0.0265681,
          51.4814629
        ]
      },
      "id": "node/443866608"
    },
    {
      "type": "Feature",
      "properties": {
        "@id": "node/443939768",
        "wikidata": "Q55125513",
        "name": "Hackney Central Library",
        "amenity": "library"
      },
      "geometry": {
        "type": "Point",
        "coordinates": [
          -0.0556753,
          51.5446215
        ]
      },
      "id": "node/443939768"
    },
    {
      "type": "Feature",
      "properties": {
        "@id": "node/452190231",
        "website": "http://www.better.org.uk/venues/southfields-library",
        "amenity": "library",
        "name": "Southfields Library",
        "phone": "+44 20 8780 1945",
        "wikidata": "Q55125911"
      },
      "geometry": {
        "type": "Point",
        "coordinates": [
          -0.2087037,
          51.4435764
        ]
      },
      "id": "node/452190231"
    },
    {
      "type": "Feature",
      "properties": {
        "@id": "node/452948294",
        "wheelchair": "yes",
        "name": "Vue",
        "amenity": "cinema"
      },
      "geometry": {
        "type": "Point",
        "coordinates": [
          -0.2189002,
          51.5032188
        ]
      },
      "id": "node/452948294"
    },
    {
      "type": "Feature",
      "properties": {
        "@id": "node/465648616",
        "opening_hours": "Monday: 09:00 - 18:00",
        "addr:city": "Croydon",
        "addr:housename": "New Addington Centre",
        "addr:housenumber": "61",
        "addr:postcode": "CR0 0JD",
        "addr:street": "Central Parade",
        "addr:village": "New Addington",
        "amenity": "library",
        "internet_access": "yes",
        "name": "New Addington Library",
        "operator": "Croydon Council"
      },
      "geometry": {
        "type": "Point",
        "coordinates": [
          -0.0133454,
          51.3401902
        ]
      },
      "id": "node/465648616"
    },
    {
      "type": "Feature",
      "properties": {
        "@id": "node/469456583",
        "name": "Carribean Community Centre & Day Nursery",
        "amenity": "community_centre",
        "phone": "081 802 0550"
      },
      "geometry": {
        "type": "Point",
        "coordinates": [
          -0.0965343,
          51.5699527
        ]
      },
      "id": "node/469456583"
    },
    {
      "type": "Feature",
      "properties": {
        "@id": "node/497394455",
        "wikipedia": "en:Tabernacle, Notting Hill",
        "amenity": "music_venue",
        "leisure": "music_venue",
        "name": "The Tabernacle",
        "wikidata": "Q7673024"
      },
      "geometry": {
        "type": "Point",
        "coordinates": [
          -0.2016509,
          51.5167576
        ]
      },
      "id": "node/497394455"
    },
    {
      "type": "Feature",
      "properties": {
        "@id": "node/498694180",
        "amenity": "cinema",
        "name": "Cineworld"
      },
      "geometry": {
        "type": "Point",
        "coordinates": [
          -0.1730899,
          51.4855596
        ]
      },
      "id": "node/498694180"
    },
    {
      "type": "Feature",
      "properties": {
        "@id": "node/498694200",
        "tourism": "gallery",
        "addr:housenumber": "253",
        "amenity": "arts_centre",
        "name": "Northcote Gallery"
      },
      "geometry": {
        "type": "Point",
        "coordinates": [
          -0.1719956,
          51.4860223
        ]
      },
      "id": "node/498694200"
    },
    {
      "type": "Feature",
      "properties": {
        "@id": "node/510786316",
        "website": "http://www.ucl.ac.uk/library/science.shtml",
        "amenity": "library",
        "name": "UCL Science Library",
        "phone": "+44 20 7679 7795",
        "postal_code": "WC1E 6BT",
        "wheelchair": "yes"
      },
      "geometry": {
        "type": "Point",
        "coordinates": [
          -0.1327747,
          51.5233822
        ]
      },
      "id": "node/510786316"
    },
    {
      "type": "Feature",
      "properties": {
        "@id": "node/512764938",
        "amenity": "library",
        "name": "Lambeth Archives & Minet Library",
        "wikidata": "Q6481410",
        "wikipedia": "en:Lambeth Archives"
      },
      "geometry": {
        "type": "Point",
        "coordinates": [
          -0.1052039,
          51.4713817
        ]
      },
      "id": "node/512764938"
    },
    {
      "type": "Feature",
      "properties": {
        "@id": "node/521402930",
        "wikidata": "Q55125646",
        "amenity": "library",
        "name": "Yeading Library"
      },
      "geometry": {
        "type": "Point",
        "coordinates": [
          -0.4041044,
          51.5208361
        ]
      },
      "id": "node/521402930"
    },
    {
      "type": "Feature",
      "properties": {
        "@id": "node/528097911",
        "name": "Uxbridge Odeon",
        "level": "2",
        "amenity": "cinema"
      },
      "geometry": {
        "type": "Point",
        "coordinates": [
          -0.4751422,
          51.5450712
        ]
      },
      "id": "node/528097911"
    },
    {
      "type": "Feature",
      "properties": {
        "@id": "node/529116432",
        "addr:housenumber": "399",
        "addr:street": "High Road",
        "amenity": "nightclub",
        "website": "www.tottenhamchances.com"
      },
      "geometry": {
        "type": "Point",
        "coordinates": [
          -0.0706517,
          51.5899029
        ]
      },
      "id": "node/529116432"
    },
    {
      "type": "Feature",
      "properties": {
        "@id": "node/534997722",
        "name": "Institut Franais",
        "amenity": "cinema",
        "culture": "french"
      },
      "geometry": {
        "type": "Point",
        "coordinates": [
          -0.1749475,
          51.4944053
        ]
      },
      "id": "node/534997722"
    },
    {
      "type": "Feature",
      "properties": {
        "@id": "node/565470152",
        "gay": "yes",
        "amenity": "nightclub",
        "wikidata": "Q3093022",
        "addr:city": "London",
        "addr:housenumber": "5",
        "addr:street": "Goslett Yard",
        "fhrs:confidence_management": "0",
        "fhrs:hygiene": "0",
        "fhrs:id": "413708",
        "fhrs:local_authority_id": "01360/0005/0/000",
        "fhrs:rating": "5",
        "fhrs:structural": "0",
        "lgbtq": "primary",
        "name": "G-A-Y Late",
        "opening_hours": "Mo-Su 23:00-23:59, 00:00-03:00",
        "outdoor_seating": "no",
        "postal_code": "WC2H 0EE",
        "smoking": "outside",
        "source:postcode": "FSA Food Hygiene Ratings Database",
        "website": "http://www.g-a-y.co.uk"
      },
      "geometry": {
        "type": "Point",
        "coordinates": [
          -0.1306377,
          51.5150956
        ]
      },
      "id": "node/565470152"
    },
    {
      "type": "Feature",
      "properties": {
        "@id": "node/576994712",
        "name": "The Crypt",
        "amenity": "theatre",
        "website": "http://cryptonthegreen.co.uk/",
        "addr:postcode": "EC1R 0EA",
        "addr:street": "Clerkenwell Close"
      },
      "geometry": {
        "type": "Point",
        "coordinates": [
          -0.105511,
          51.523472
        ]
      },
      "id": "node/576994712"
    },
    {
      "type": "Feature",
      "properties": {
        "@id": "node/581961373",
        "website": "craftcentral.org.uk",
        "name": "Craft Central",
        "amenity": "arts_centre"
      },
      "geometry": {
        "type": "Point",
        "coordinates": [
          -0.1028152,
          51.52241
        ]
      },
      "id": "node/581961373"
    },
    {
      "type": "Feature",
      "properties": {
        "@id": "node/582582173",
        "wikidata": "Q638511",
        "website": "o2academyislington.co.uk",
        "amenity": "nightclub",
        "name": "O2 Academy Islington"
      },
      "geometry": {
        "type": "Point",
        "coordinates": [
          -0.1056969,
          51.534574
        ]
      },
      "id": "node/582582173"
    },
    {
      "type": "Feature",
      "properties": {
        "@id": "node/584514541",
        "amenity": "nightclub",
        "name": "Rhums Jungle",
        "note": "Part of Cottons restaurant"
      },
      "geometry": {
        "type": "Point",
        "coordinates": [
          -0.1080004,
          51.5263265
        ]
      },
      "id": "node/584514541"
    },
    {
      "type": "Feature",
      "properties": {
        "@id": "node/587754352",
        "name": "Waterloo Action Centre",
        "addr:postcode": "SE1 8TA",
        "addr:city": "London",
        "addr:country": "GB",
        "addr:housenumber": "14",
        "addr:street": "Baylis Road",
        "amenity": "community_centre"
      },
      "geometry": {
        "type": "Point",
        "coordinates": [
          -0.1106433,
          51.5019816
        ]
      },
      "id": "node/587754352"
    },
    {
      "type": "Feature",
      "properties": {
        "@id": "node/587756076",
        "amenity": "library",
        "name": "Waterloo Job Shop & Library"
      },
      "geometry": {
        "type": "Point",
        "coordinates": [
          -0.11298,
          51.500804
        ]
      },
      "id": "node/587756076"
    },
    {
      "type": "Feature",
      "properties": {
        "@id": "node/598355044",
        "name": "The Broadway Theatre, Barking",
        "amenity": "theatre"
      },
      "geometry": {
        "type": "Point",
        "coordinates": [
          0.0772176,
          51.5359833
        ]
      },
      "id": "node/598355044"
    },
    {
      "type": "Feature",
      "properties": {
        "@id": "node/603120730",
        "amenity": "nightclub",
        "name": "FREVD"
      },
      "geometry": {
        "type": "Point",
        "coordinates": [
          -0.126555,
          51.515332
        ]
      },
      "id": "node/603120730"
    },
    {
      "type": "Feature",
      "properties": {
        "@id": "node/616836517",
        "website": "http://www.lewisham.gov.uk/myservices/libraries/branches/Pages/Crofton-Park-community-library-service.aspx",
        "wheelchair": "yes",
        "addr:housenumber": "375",
        "addr:street": "Brockley Road",
        "amenity": "library",
        "name": "Crofton Park Library",
        "opening_hours": "Mo 09:00-17:00; Tu,Th 09:00-19:00; Fr 09:00-13:00, Sa 09:00-17:00; Mo-Fr,Su off",
        "postal_code": "SE4 2AG"
      },
      "geometry": {
        "type": "Point",
        "coordinates": [
          -0.036486,
          51.45547
        ]
      },
      "id": "node/616836517"
    },
    {
      "type": "Feature",
      "properties": {
        "@id": "node/618685941",
        "wikipedia": "en:Royal Institute of British Architects",
        "name:en": "Royal Institute Of British Architects",
        "addr:housenumber": "66",
        "amenity": "library",
        "name:es": "Real Instituto de Arquitectos Britnicos",
        "wikidata": "Q1067943"
      },
      "geometry": {
        "type": "Point",
        "coordinates": [
          -0.145109,
          51.521128
        ]
      },
      "id": "node/618685941"
    },
    {
      "type": "Feature",
      "properties": {
        "@id": "node/618694098",
        "phone": "+44 2076411300",
        "wikidata": "Q27087104",
        "operator": "City of Westminster",
        "name": "Victoria Library",
        "amenity": "library",
        "addr:housenumber": "160",
        "addr:postcode": "SW1W 9UD",
        "addr:street": "Buckingham Palace Road"
      },
      "geometry": {
        "type": "Point",
        "coordinates": [
          -0.1479538,
          51.4927856
        ]
      },
      "id": "node/618694098"
    },
    {
      "type": "Feature",
      "properties": {
        "@id": "node/626947261",
        "amenity": "gallery",
        "name": "OTT Creative Co-Op",
        "website": "http://ott.knarly.com"
      },
      "geometry": {
        "type": "Point",
        "coordinates": [
          -0.1003023,
          51.4730409
        ]
      },
      "id": "node/626947261"
    },
    {
      "type": "Feature",
      "properties": {
        "@id": "node/632558517",
        "amenity": "library",
        "name": "Kingston Library",
        "wikidata": "Q26354478"
      },
      "geometry": {
        "type": "Point",
        "coordinates": [
          -0.3002155,
          51.4093452
        ]
      },
      "id": "node/632558517"
    },
    {
      "type": "Feature",
      "properties": {
        "@id": "node/632558519",
        "amenity": "library",
        "name": "Kingston Children's Library"
      },
      "geometry": {
        "type": "Point",
        "coordinates": [
          -0.3002406,
          51.4097851
        ]
      },
      "id": "node/632558519"
    },
    {
      "type": "Feature",
      "properties": {
        "@id": "node/639178748",
        "wikidata": "Q24883304",
        "amenity": "library",
        "name": "Westminster Reference Library",
        "opening_hours": "Mo-Fr 10:00-20:00; Sa 10:00-17:00"
      },
      "geometry": {
        "type": "Point",
        "coordinates": [
          -0.1298088,
          51.5095693
        ]
      },
      "id": "node/639178748"
    },
    {
      "type": "Feature",
      "properties": {
        "@id": "node/660760080",
        "amenity": "community_centre",
        "name": "Asta Centre"
      },
      "geometry": {
        "type": "Point",
        "coordinates": [
          0.0451249,
          51.5033461
        ]
      },
      "id": "node/660760080"
    },
    {
      "type": "Feature",
      "properties": {
        "@id": "node/662219734",
        "amenity": "community_centre",
        "name": "Trinity Community Centre"
      },
      "geometry": {
        "type": "Point",
        "coordinates": [
          0.0153384,
          51.5164082
        ]
      },
      "id": "node/662219734"
    },
    {
      "type": "Feature",
      "properties": {
        "@id": "node/666122718",
        "wikipedia": "en:Opera Holland Park",
        "amenity": "theatre",
        "name": "Opera Holland Park",
        "theatre:genre": "Opera",
        "website": "http://www.ohp.rbkc.gov.uk/",
        "wikidata": "Q7096594"
      },
      "geometry": {
        "type": "Point",
        "coordinates": [
          -0.2021397,
          51.5023041
        ]
      },
      "id": "node/666122718"
    },
    {
      "type": "Feature",
      "properties": {
        "@id": "node/668541398",
        "name": "Shortwave",
        "website": "http://www.shortwavefilms.co.uk",
        "amenity": "cinema",
        "addr:street": "Bermondsey Square",
        "addr:housenumber": "10",
        "postal_code": "SE1 3UN"
      },
      "geometry": {
        "type": "Point",
        "coordinates": [
          -0.0807865,
          51.4976739
        ]
      },
      "id": "node/668541398"
    },
    {
      "type": "Feature",
      "properties": {
        "@id": "node/676754465",
        "amenity": "library",
        "name": "Southborough Library",
        "wikidata": "Q55125355"
      },
      "geometry": {
        "type": "Point",
        "coordinates": [
          0.0434611,
          51.3899068
        ]
      },
      "id": "node/676754465"
    },
    {
      "type": "Feature",
      "properties": {
        "@id": "node/683392235",
        "wikidata": "Q55125395",
        "source": "OS Street View",
        "name": "Bradmore Green Library",
        "amenity": "library"
      },
      "geometry": {
        "type": "Point",
        "coordinates": [
          -0.1239307,
          51.307569
        ]
      },
      "id": "node/683392235"
    },
    {
      "type": "Feature",
      "properties": {
        "@id": "node/686459703",
        "amenity": "community_centre",
        "name": "Ringway Community Centre"
      },
      "geometry": {
        "type": "Point",
        "coordinates": [
          0.0188208,
          51.4359933
        ]
      },
      "id": "node/686459703"
    },
    {
      "type": "Feature",
      "properties": {
        "@id": "node/686725635",
        "amenity": "library",
        "name": "Burnt Ash Library",
        "wikidata": "Q55125337"
      },
      "geometry": {
        "type": "Point",
        "coordinates": [
          0.0196736,
          51.4198648
        ]
      },
      "id": "node/686725635"
    },
    {
      "type": "Feature",
      "properties": {
        "@id": "node/691719964",
        "amenity": "nightclub",
        "source:postcode": "FSA Food Hygiene Ratings Database",
        "source:addr": "FSA Food Hygiene Ratings Database",
        "postal_code": "W1F 8ZD",
        "fhrs:id": "535871",
        "fhrs:local_authority_id": "00688/0201/0/000",
        "fhrs:rating": "5",
        "name": "Dirty Harry's Soho",
        "website": "http://www.dirtyharryssoho.com/",
        "addr:street": "Wardour Street",
        "addr:housenumber": "201-203",
        "addr:city": "London"
      },
      "geometry": {
        "type": "Point",
        "coordinates": [
          -0.13583,
          51.5156823
        ]
      },
      "id": "node/691719964"
    },
    {
      "type": "Feature",
      "properties": {
        "@id": "node/693187812",
        "wikidata": "Q7193263",
        "postcode": "W1J 9HN",
        "name": "The Pigalle Club",
        "addr:street": "Picadilly",
        "addr:housenumber": "215",
        "amenity": "nightclub"
      },
      "geometry": {
        "type": "Point",
        "coordinates": [
          -0.135008,
          51.509508
        ]
      },
      "id": "node/693187812"
    },
    {
      "type": "Feature",
      "properties": {
        "@id": "node/699782743",
        "addr:postcode": "W1",
        "website": "http://troyclub.co.uk/",
        "addr:city": "London",
        "addr:housenumber": "22",
        "addr:street": "Hanway Street",
        "amenity": "nightclub",
        "name": "Troy 22"
      },
      "geometry": {
        "type": "Point",
        "coordinates": [
          -0.1320093,
          51.5168851
        ]
      },
      "id": "node/699782743"
    },
    {
      "type": "Feature",
      "properties": {
        "@id": "node/701747064",
        "FIXME": "Check exact position.",
        "name": "Sir John Cass Hall",
        "amenity": "arts_centre"
      },
      "geometry": {
        "type": "Point",
        "coordinates": [
          -0.0481859,
          51.5426339
        ]
      },
      "id": "node/701747064"
    },
    {
      "type": "Feature",
      "properties": {
        "@id": "node/703286426",
        "website": "http://www.lambeth.gov.uk/places/brixton-library",
        "wikidata": "Q27086853",
        "wheelchair": "yes",
        "phone": "+44 20 7926 1056",
        "addr:postcode": "SW2 1JQ",
        "addr:street": "Brixton Oval",
        "amenity": "library",
        "contact:email": "BrixtonLendingLibrary@lambeth.gov.uk",
        "internet_access": "wlan",
        "internet_access_1": "terminal",
        "name": "Brixton Library",
        "opening_hours": "Mo 13:00-20:00; Tu,Th 10:00-20:00; We,Fr 10:00-18:00; Sa 09:00-17:00; Su 12:00-17:00"
      },
      "geometry": {
        "type": "Point",
        "coordinates": [
          -0.1148482,
          51.4609462
        ]
      },
      "id": "node/703286426"
    },
    {
      "type": "Feature",
      "properties": {
        "@id": "node/705228239",
        "phone": "+44207 737 6153",
        "wikidata": "Q42035964",
        "website": "https://www.whirledcinema.com/",
        "source": "Website",
        "addr:city": "London",
        "addr:housenumber": "259",
        "addr:postcode": "SE24 0HN",
        "addr:street": "Hardess Street",
        "amenity": "cinema",
        "name": "Whirled Cinema"
      },
      "geometry": {
        "type": "Point",
        "coordinates": [
          -0.1008894,
          51.4650529
        ]
      },
      "id": "node/705228239"
    },
    {
      "type": "Feature",
      "properties": {
        "@id": "node/713773749",
        "amenity": "theatre",
        "name": "The Beck Theatre",
        "operator": "Hillingdon London Borough",
        "source": "OS OpenData StreetView",
        "wikidata": "Q4878614"
      },
      "geometry": {
        "type": "Point",
        "coordinates": [
          -0.4216956,
          51.5208644
        ]
      },
      "id": "node/713773749"
    },
    {
      "type": "Feature",
      "properties": {
        "@id": "node/718989172",
        "website": "http://www.lbhf.gov.uk/Directory/Leisure_and_Culture/Libraries/Fulham_library",
        "wikidata": "Q15978992",
        "source": "os_street_view",
        "addr:city": "London",
        "addr:housenumber": "598",
        "addr:postcode": "SW6 5NX",
        "addr:street": "Fulham Road",
        "amenity": "library",
        "name": "Fulham Library",
        "operator": "London Borough of Hammersmith & Fulham"
      },
      "geometry": {
        "type": "Point",
        "coordinates": [
          -0.2026887,
          51.477164
        ]
      },
      "id": "node/718989172"
    },
    {
      "type": "Feature",
      "properties": {
        "@id": "node/721134670",
        "amenity": "library",
        "source": "os_street_view"
      },
      "geometry": {
        "type": "Point",
        "coordinates": [
          -0.2043132,
          51.4842751
        ]
      },
      "id": "node/721134670"
    },
    {
      "type": "Feature",
      "properties": {
        "@id": "node/724398596",
        "tourism": "museum",
        "source": "Personal knowledge",
        "name": "Redbridge Museum",
        "amenity": "library"
      },
      "geometry": {
        "type": "Point",
        "coordinates": [
          0.075381,
          51.558088
        ]
      },
      "id": "node/724398596"
    },
    {
      "type": "Feature",
      "properties": {
        "@id": "node/727681483",
        "name": "Hillingdon Central Library",
        "amenity": "library"
      },
      "geometry": {
        "type": "Point",
        "coordinates": [
          -0.4783473,
          51.5453744
        ]
      },
      "id": "node/727681483"
    },
    {
      "type": "Feature",
      "properties": {
        "@id": "node/727700610",
        "amenity": "theatre",
        "name": "The Compass Theatre",
        "wheelchair": "limited"
      },
      "geometry": {
        "type": "Point",
        "coordinates": [
          -0.44069,
          51.5618505
        ]
      },
      "id": "node/727700610"
    },
    {
      "type": "Feature",
      "properties": {
        "@id": "node/730777082",
        "addr:housenumber": "7",
        "amenity": "arts_centre",
        "name": "Sarah Maple"
      },
      "geometry": {
        "type": "Point",
        "coordinates": [
          -0.1980027,
          51.5142317
        ]
      },
      "id": "node/730777082"
    },
    {
      "type": "Feature",
      "properties": {
        "@id": "node/731088278",
        "addr:housenumber": "114",
        "amenity": "arts_centre"
      },
      "geometry": {
        "type": "Point",
        "coordinates": [
          -0.2038775,
          51.5130045
        ]
      },
      "id": "node/731088278"
    },
    {
      "type": "Feature",
      "properties": {
        "@id": "node/735954176",
        "amenity": "library",
        "name": "Mr Clever's"
      },
      "geometry": {
        "type": "Point",
        "coordinates": [
          -0.1545868,
          51.5187125
        ]
      },
      "id": "node/735954176"
    },
    {
      "type": "Feature",
      "properties": {
        "@id": "node/747083864",
        "website": "http://anandacentre.co.uk",
        "addr:city": "Romford",
        "addr:housename": "St John's Community Hall",
        "addr:postcode": "RM7 7BH",
        "addr:street": "Mawney Road",
        "amenity": "community_centre",
        "name": "St John's Community Hall",
        "note": "Previously the (Church of England) Parish Church of St John the Divine, Romford (1928c. 2010).",
        "operator": "Ananda Ventures",
        "source": "os_street_view"
      },
      "geometry": {
        "type": "Point",
        "coordinates": [
          0.1658619,
          51.5807129
        ]
      },
      "id": "node/747083864"
    },
    {
      "type": "Feature",
      "properties": {
        "@id": "node/759843382",
        "amenity": "community_centre",
        "name": "Oak Tree Communit Centre"
      },
      "geometry": {
        "type": "Point",
        "coordinates": [
          -0.0819984,
          51.571531
        ]
      },
      "id": "node/759843382"
    },
    {
      "type": "Feature",
      "properties": {
        "@id": "node/765802909",
        "amenity": "library",
        "name": "Hendon Library",
        "wheelchair": "yes",
        "wikidata": "Q27087003"
      },
      "geometry": {
        "type": "Point",
        "coordinates": [
          -0.2288779,
          51.5885771
        ]
      },
      "id": "node/765802909"
    },
    {
      "type": "Feature",
      "properties": {
        "@id": "node/794330707",
        "amenity": "theatre",
        "name": "The Rose"
      },
      "geometry": {
        "type": "Point",
        "coordinates": [
          -0.3073163,
          51.4084589
        ]
      },
      "id": "node/794330707"
    },
    {
      "type": "Feature",
      "properties": {
        "@id": "node/799284713",
        "website": "https://www.toy-room.com/",
        "addr:housenumber": "8",
        "addr:street": "Argyll Street",
        "amenity": "nightclub",
        "name": "Toy Room Club",
        "phone": "+44 20 7734 6066"
      },
      "geometry": {
        "type": "Point",
        "coordinates": [
          -0.1405708,
          51.5146613
        ]
      },
      "id": "node/799284713"
    },
    {
      "type": "Feature",
      "properties": {
        "@id": "node/824412278",
        "phone": "+44 2072261787",
        "wikipedia": "en:Little Angel Theatre",
        "wikidata": "Q15242491",
        "name": "Little Angel Theatre",
        "amenity": "theatre",
        "addr:street": "Dagmar Passage"
      },
      "geometry": {
        "type": "Point",
        "coordinates": [
          -0.1013532,
          51.5388222
        ]
      },
      "id": "node/824412278"
    },
    {
      "type": "Feature",
      "properties": {
        "@id": "node/831425995",
        "amenity": "community_centre",
        "name": "RFH Recreation Club",
        "operator": "Royal Free Hospital"
      },
      "geometry": {
        "type": "Point",
        "coordinates": [
          -0.1639907,
          51.5537471
        ]
      },
      "id": "node/831425995"
    },
    {
      "type": "Feature",
      "properties": {
        "@id": "node/835833819",
        "amenity": "arts_centre",
        "name": "Village Ceramics"
      },
      "geometry": {
        "type": "Point",
        "coordinates": [
          -0.2160308,
          51.3569441
        ]
      },
      "id": "node/835833819"
    },
    {
      "type": "Feature",
      "properties": {
        "@id": "node/848850621",
        "amenity": "library",
        "name": "Sydenham Library"
      },
      "geometry": {
        "type": "Point",
        "coordinates": [
          -0.0406474,
          51.4269182
        ]
      },
      "id": "node/848850621"
    },
    {
      "type": "Feature",
      "properties": {
        "@id": "node/862310076",
        "phone": "+44 2076411300",
        "operator": "City of Westminster",
        "addr:housenumber": "160",
        "addr:postcode": "SW1W 9UD",
        "addr:street": "Buckingham Palace Road",
        "amenity": "library",
        "name": "Victoria Music Library"
      },
      "geometry": {
        "type": "Point",
        "coordinates": [
          -0.1478834,
          51.4928935
        ]
      },
      "id": "node/862310076"
    },
    {
      "type": "Feature",
      "properties": {
        "@id": "node/914971622",
        "amenity": "library",
        "name": "Neasden Library Plus"
      },
      "geometry": {
        "type": "Point",
        "coordinates": [
          -0.2515019,
          51.5598343
        ]
      },
      "id": "node/914971622"
    },
    {
      "type": "Feature",
      "properties": {
        "@id": "node/920198785",
        "wheelchair": "yes",
        "amenity": "cinema",
        "name": "Odeon"
      },
      "geometry": {
        "type": "Point",
        "coordinates": [
          -0.2992998,
          51.4119331
        ]
      },
      "id": "node/920198785"
    },
    {
      "type": "Feature",
      "properties": {
        "@id": "node/931615202",
        "amenity": "community_centre",
        "name": "Charlie Ratchford Resource Centre For Old People"
      },
      "geometry": {
        "type": "Point",
        "coordinates": [
          -0.1513945,
          51.5444219
        ]
      },
      "id": "node/931615202"
    },
    {
      "type": "Feature",
      "properties": {
        "@id": "node/931622088",
        "amenity": "community_centre",
        "name": "Care UK"
      },
      "geometry": {
        "type": "Point",
        "coordinates": [
          -0.1491833,
          51.5433043
        ]
      },
      "id": "node/931622088"
    },
    {
      "type": "Feature",
      "properties": {
        "@id": "node/931624349",
        "wheelchair": "yes",
        "source:addr:postcode": "FSA Food Hygiene Rating Scheme open data",
        "name": "Odeon",
        "fhrs:id": "424604",
        "addr:city": "London",
        "addr:housenumber": "14",
        "addr:postcode": "NW1 7AA",
        "addr:street": "Parkway",
        "amenity": "cinema"
      },
      "geometry": {
        "type": "Point",
        "coordinates": [
          -0.1437574,
          51.5389741
        ]
      },
      "id": "node/931624349"
    },
    {
      "type": "Feature",
      "properties": {
        "@id": "node/931645348",
        "amenity": "library",
        "name": "Primrose Hill Community Library",
        "wikidata": "Q55125362"
      },
      "geometry": {
        "type": "Point",
        "coordinates": [
          -0.1566691,
          51.5411018
        ]
      },
      "id": "node/931645348"
    },
    {
      "type": "Feature",
      "properties": {
        "@id": "node/931648924",
        "amenity": "community_centre",
        "name": "The Camden Society"
      },
      "geometry": {
        "type": "Point",
        "coordinates": [
          -0.1432658,
          51.5527339
        ]
      },
      "id": "node/931648924"
    },
    {
      "type": "Feature",
      "properties": {
        "@id": "node/996533362",
        "addr:city": "London",
        "addr:country": "GB",
        "addr:housenumber": "34",
        "addr:street": "Haldane Road",
        "amenity": "community_centre",
        "community_centre:for": "child;juvenile",
        "max_age": "19",
        "min_age": "8",
        "name": "The Brunswick Club for Young People",
        "postal_code": "SW6 7EU"
      },
      "geometry": {
        "type": "Point",
        "coordinates": [
          -0.2024645,
          51.4825768
        ]
      },
      "id": "node/996533362"
    },
    {
      "type": "Feature",
      "properties": {
        "@id": "node/1001484787",
        "wheelchair": "yes",
        "name": "Bush Hall",
        "amenity": "theatre"
      },
      "geometry": {
        "type": "Point",
        "coordinates": [
          -0.2316906,
          51.5063764
        ]
      },
      "id": "node/1001484787"
    },
    {
      "type": "Feature",
      "properties": {
        "@id": "node/1003093167",
        "name": "Rayners Lane Library",
        "amenity": "library"
      },
      "geometry": {
        "type": "Point",
        "coordinates": [
          -0.3701561,
          51.5763703
        ]
      },
      "id": "node/1003093167"
    },
    {
      "type": "Feature",
      "properties": {
        "@id": "node/1044892519",
        "amenity": "library",
        "name": "Hook Community centre"
      },
      "geometry": {
        "type": "Point",
        "coordinates": [
          -0.3063793,
          51.3678156
        ]
      },
      "id": "node/1044892519"
    },
    {
      "type": "Feature",
      "properties": {
        "@id": "node/1080790344",
        "amenity": "library",
        "name": "Thames View Library",
        "operator": "London Borough of Barking and Dagenham",
        "wikidata": "Q55125296"
      },
      "geometry": {
        "type": "Point",
        "coordinates": [
          0.1045101,
          51.5279969
        ]
      },
      "id": "node/1080790344"
    },
    {
      "type": "Feature",
      "properties": {
        "@id": "node/1081725631",
        "name": "Kensal Youth Club",
        "website": "https://www.facebook.com/pages/Kensal-Youth-Club/230983887019300",
        "amenity": "community_centre",
        "community_centre:for": "juvenile"
      },
      "geometry": {
        "type": "Point",
        "coordinates": [
          -0.2148724,
          51.5254203
        ]
      },
      "id": "node/1081725631"
    },
    {
      "type": "Feature",
      "properties": {
        "@id": "node/1097177019",
        "amenity": "cinema",
        "name": "Watermans Arts Centre"
      },
      "geometry": {
        "type": "Point",
        "coordinates": [
          -0.2979129,
          51.4858042
        ]
      },
      "id": "node/1097177019"
    },
    {
      "type": "Feature",
      "properties": {
        "@id": "node/1120750177",
        "addr:street": "Torrens Street",
        "name": "Electrowerks",
        "addr:postcode": "EC1V 1NQ",
        "amenity": "nightclub",
        "addr:housenumber": "7"
      },
      "geometry": {
        "type": "Point",
        "coordinates": [
          -0.105154,
          51.5323004
        ]
      },
      "id": "node/1120750177"
    },
    {
      "type": "Feature",
      "properties": {
        "@id": "node/1125267112",
        "wikidata": "Q41562599",
        "wheelchair": "yes",
        "addr:city": "Romford",
        "addr:housenumber": "1-15",
        "addr:postcode": "RM1 1AU",
        "addr:street": "Waterloo Rd",
        "amenity": "cinema",
        "name": "Vue",
        "toilets:wheelchair": "yes"
      },
      "geometry": {
        "type": "Point",
        "coordinates": [
          0.1790185,
          51.5747423
        ]
      },
      "id": "node/1125267112"
    },
    {
      "type": "Feature",
      "properties": {
        "@id": "node/1139414884",
        "wikidata": "Q55125453",
        "name": "Edmonton Green Library",
        "amenity": "library"
      },
      "geometry": {
        "type": "Point",
        "coordinates": [
          -0.0580323,
          51.6238918
        ]
      },
      "id": "node/1139414884"
    },
    {
      "type": "Feature",
      "properties": {
        "@id": "node/1165598938",
        "amenity": "community_centre",
        "name": "Time and Talents"
      },
      "geometry": {
        "type": "Point",
        "coordinates": [
          -0.0538438,
          51.5004823
        ]
      },
      "id": "node/1165598938"
    },
    {
      "type": "Feature",
      "properties": {
        "@id": "node/1201381588",
        "wikipedia": "en:London Irish Centre",
        "wikidata": "Q6670524",
        "nationality": "ie",
        "name": "London Irish Centre",
        "amenity": "arts_centre",
        "addr:street": "Camden Square",
        "addr:housenumber": "50-52"
      },
      "geometry": {
        "type": "Point",
        "coordinates": [
          -0.1324276,
          51.5438261
        ]
      },
      "id": "node/1201381588"
    },
    {
      "type": "Feature",
      "properties": {
        "@id": "node/1210268273",
        "wikidata": "Q47528805",
        "note": "Position within building not known - but must be mapped as a point since the building contains several amenities.",
        "amenity": "library",
        "name": "Chelsea Library"
      },
      "geometry": {
        "type": "Point",
        "coordinates": [
          -0.1680808,
          51.4874593
        ]
      },